[
  {
    "id": "court-1",
    "name": "Cung Tiên Sơn",
    "address": "01A Phan Đăng Lưu, P. Hòa Cường Bắc, Q. Hải Châu",
    "latitude": 16.0368203,
    "longitude": 108.2264605,
    "contact_number": "",
    "zalo_url": "https://zalo.me/",
    "maps_url": "https://maps.app.goo.gl/placeholder",
    "image_urls": [
      "https://images.unsplash.com/photo-1626224583764-f87db24ac4ea?auto=format&fit=crop&q=80&w=800"
    ],
    "num_of_courts": 12,
    "price_range": "Liên hệ",
    "tags": [
      "Q. Hải Châu",
      "Sân thảm"
    ],
    "created_at": "2026-04-20T10:00:00Z"
  },
  {
    "id": "court-2",
    "name": "Sân Quân khu 5 (Sân gỗ & thảm)",
    "address": "07 Duy Tân, P. Hòa Cường Bắc, Q. Hải Châu",
    "latitude": 16.0469678,
    "longitude": 108.2156541,
    "contact_number": "0905291918",
    "zalo_url": "https://zalo.me/0905291918",
    "maps_url": "https://maps.app.goo.gl/placeholder",
    "image_urls": [
      "https://images.unsplash.com/photo-1598005481773-6701235b3e64?auto=format&fit=crop&q=80&w=800"
    ],
    "num_of_courts": 14,
    "price_range": "Liên hệ",
    "tags": [
      "Q. Hải Châu",
      "Sân gỗ",
      "Sân thảm"
    ],
    "created_at": "2026-04-20T10:00:00Z"
  },
  {
    "id": "court-3",
    "name": "Sân Phan Châu Trinh",
    "address": "405 Phan Châu Trinh, P. Bình Thuận, Q. Hải Châu",
    "latitude": 16.0555913,
    "longitude": 108.2188634,
    "contact_number": "0905393223",
    "zalo_url": "https://zalo.me/0905393223",
    "maps_url": "https://maps.app.goo.gl/placeholder",
    "image_urls": [
      "https://images.unsplash.com/photo-1611250282006-4484dd3fba6b?auto=format&fit=crop&q=80&w=800"
    ],
    "num_of_courts": 9,
    "price_range": "Liên hệ",
    "tags": [
      "Q. Hải Châu"
    ],
    "created_at": "2026-04-20T10:00:00Z"
  },
  {
    "id": "court-4",
    "name": "TT Văn hóa Thể thao Q. Thanh Khê",
    "address": "21 Hồ Tương, P. An Khê, Q. Thanh Khê",
    "latitude": 16.0621762,
    "longitude": 108.1781328,
    "contact_number": "0935189909",
    "zalo_url": "https://zalo.me/0935189909",
    "maps_url": "https://maps.app.goo.gl/placeholder",
    "image_urls": [],
    "num_of_courts": 9,
    "price_range": "Liên hệ",
    "tags": [
      "Q. Thanh Khê"
    ],
    "created_at": "2026-04-20T10:00:00Z"
  },
  {
    "id": "court-5",
    "name": "Sân Tin Sport",
    "address": "107 Trường Chinh, P. An Khê, Q. Thanh Khê",
    "latitude": 16.0590991,
    "longitude": 108.1800478,
    "contact_number": "0935333748",
    "zalo_url": "https://zalo.me/0935333748",
    "maps_url": "https://maps.app.goo.gl/placeholder",
    "image_urls": [],
    "num_of_courts": 6,
    "price_range": "Liên hệ",
    "tags": [
      "Q. Thanh Khê"
    ],
    "created_at": "2026-04-20T10:00:00Z"
  },
  {
    "id": "court-6",
    "name": "Sân Kỳ Đồng",
    "address": "121 Kỳ Đồng, P. Hòa Khê, Q. Thanh Khê",
    "latitude": 16.0697078,
    "longitude": 108.1886056,
    "contact_number": "0914288338",
    "zalo_url": "https://zalo.me/0914288338",
    "maps_url": "https://maps.app.goo.gl/placeholder",
    "image_urls": [],
    "num_of_courts": 4,
    "price_range": "Liên hệ",
    "tags": [
      "Q. Thanh Khê"
    ],
    "created_at": "2026-04-20T10:00:00Z"
  },
  {
    "id": "court-7",
    "name": "TT Văn hóa Thể thao Q. Sơn Trà",
    "address": "01 Trần Quang Diệu, P. An Hải Tây, Q. Sơn Trà",
    "latitude": 16.0556963,
    "longitude": 108.1978107,
    "contact_number": "0914288353",
    "zalo_url": "https://zalo.me/0914288353",
    "maps_url": "https://maps.app.goo.gl/placeholder",
    "image_urls": [],
    "num_of_courts": 9,
    "price_range": "Liên hệ",
    "tags": [
      "Q. Sơn Trà"
    ],
    "created_at": "2026-04-20T10:00:00Z"
  },
  {
    "id": "court-8",
    "name": "Sân PinPon",
    "address": "Đường số 6, KCN An Đồn, Q. Sơn Trà",
    "latitude": 16.0765101,
    "longitude": 108.238331,
    "contact_number": "0898200700",
    "zalo_url": "https://zalo.me/0898200700",
    "maps_url": "https://maps.app.goo.gl/placeholder",
    "image_urls": [],
    "num_of_courts": 6,
    "price_range": "Liên hệ",
    "tags": [
      "Q. Sơn Trà",
      "Nhiều sân"
    ],
    "created_at": "2026-04-20T10:00:00Z"
  },
  {
    "id": "court-9",
    "name": "Sân Aurora",
    "address": "Đường số 6, KCN An Đồn, Q. Sơn Trà",
    "latitude": 16.0764326,
    "longitude": 108.238185,
    "contact_number": "0905640009",
    "zalo_url": "https://zalo.me/0905640009",
    "maps_url": "https://maps.app.goo.gl/placeholder",
    "image_urls": [],
    "num_of_courts": 8,
    "price_range": "Liên hệ",
    "tags": [
      "Q. Sơn Trà"
    ],
    "created_at": "2026-04-20T10:00:00Z"
  },
  {
    "id": "court-10",
    "name": "Sân Cầu Lông Win Win",
    "address": "642 Tôn Đức Thắng, P. Hòa Khánh Nam, Q. Liên Chiểu",
    "latitude": 16.0647848,
    "longitude": 108.1564153,
    "contact_number": "",
    "zalo_url": "https://zalo.me/",
    "maps_url": "https://maps.app.goo.gl/placeholder",
    "image_urls": [],
    "num_of_courts": 6,
    "price_range": "Liên hệ",
    "tags": [
      "Q. Liên Chiểu"
    ],
    "created_at": "2026-04-20T10:00:00Z"
  },
  {
    "id": "court-11",
    "name": "TT Huấn luyện & Đào tạo TDTT TP. Đà Nẵng",
    "address": "190 Đường Loan, P. Hòa Xuân, Q. Cẩm Lệ",
    "latitude": 16.0022,
    "longitude": 108.2122,
    "contact_number": "0905108200",
    "zalo_url": "https://zalo.me/0905108200",
    "maps_url": "https://maps.app.goo.gl/placeholder",
    "image_urls": [],
    "num_of_courts": 6,
    "price_range": "Liên hệ",
    "tags": [
      "Q. Cẩm Lệ"
    ],
    "created_at": "2026-04-20T10:00:00Z"
  },
  {
    "id": "court-12",
    "name": "Sân Trường CĐ Lương Thực Thực Phẩm",
    "address": "101B Lê Hữu Trác, P. Phước Mỹ, Q. Sơn Trà",
    "latitude": 16.0592,
    "longitude": 108.2415,
    "contact_number": "0905225295",
    "zalo_url": "https://zalo.me/0905225295",
    "maps_url": "https://maps.app.goo.gl/placeholder",
    "image_urls": [],
    "num_of_courts": 6,
    "price_range": "Liên hệ",
    "tags": [
      "Q. Sơn Trà",
      "Sân trường"
    ],
    "created_at": "2026-04-20T10:00:00Z"
  },
  {
    "id": "court-13",
    "name": "Sân Đỗ Ngọc Du",
    "address": "34 Đỗ Ngọc Du, P. Thanh Khê Đông, Q. Thanh Khê",
    "latitude": 16.0665092,
    "longitude": 108.185585,
    "contact_number": "0766666995",
    "zalo_url": "https://zalo.me/0766666995",
    "maps_url": "https://maps.app.goo.gl/placeholder",
    "image_urls": [],
    "num_of_courts": 4,
    "price_range": "Liên hệ",
    "tags": [
      "Q. Thanh Khê"
    ],
    "created_at": "2026-04-20T06:36:48.616Z"
  },
  {
    "id": "court-15",
    "name": "Sân trường ĐH TDTT TP. Đà Nẵng",
    "address": "44 Dũng Sĩ Thanh Khê, P. Thanh Khê Tây, Q. Thanh Khê",
    "latitude": 16.071642,
    "longitude": 108.176853,
    "contact_number": "0912850767",
    "zalo_url": "https://zalo.me/0912850767",
    "maps_url": "https://maps.app.goo.gl/placeholder",
    "image_urls": [],
    "num_of_courts": 9,
    "price_range": "Liên hệ",
    "tags": [
      "Q. Thanh Khê",
      "Nhiều sân"
    ],
    "created_at": "2026-04-20T06:36:48.617Z"
  },
  {
    "id": "court-16",
    "name": "Sân cầu lông UK Academy",
    "address": "1/28 Tôn Thất Đạm, P. Xuân Hà, Q. Thanh Khê",
    "latitude": 16.0445943,
    "longitude": 108.2070669,
    "contact_number": "",
    "zalo_url": "",
    "maps_url": "https://maps.app.goo.gl/placeholder",
    "image_urls": [],
    "num_of_courts": 3,
    "price_range": "Liên hệ",
    "tags": [
      "Q. Thanh Khê"
    ],
    "created_at": "2026-04-20T06:36:48.617Z"
  },
  {
    "id": "court-22",
    "name": "Sân INDEXSport Ngũ Hành Sơn",
    "address": "81C Lê Văn Hiến, P. Khuê Mỹ, Q. Ngũ Hành Sơn",
    "latitude": 16.0004,
    "longitude": 108.2596,
    "contact_number": "0981086979",
    "zalo_url": "https://zalo.me/0981086979",
    "maps_url": "https://maps.app.goo.gl/placeholder",
    "image_urls": [],
    "num_of_courts": 6,
    "price_range": "Liên hệ",
    "tags": [
      "Q. Ngũ Hành Sơn"
    ],
    "created_at": "2026-04-20T06:36:48.617Z"
  },
  {
    "id": "court-58",
    "name": "Sân INDEXSport Trịnh Công Sơn",
    "address": "12 Trịnh Công Sơn, P. An Khê, Q. Thanh Khê",
    "latitude": 16.06,
    "longitude": 108.19,
    "contact_number": "0981086979",
    "zalo_url": "https://zalo.me/0981086979",
    "maps_url": "https://maps.app.goo.gl/placeholder",
    "image_urls": [],
    "num_of_courts": 6,
    "price_range": "Liên hệ",
    "tags": [
      "Q. Thanh Khê"
    ],
    "created_at": "2026-04-23T10:00:00Z"
  },
  {
    "id": "court-23",
    "name": "Sân Phúc Đăng",
    "address": "39 Thanh Lương 19, P. Hòa Xuân, Q. Cẩm Lệ",
    "latitude": 16.013,
    "longitude": 108.2214,
    "contact_number": "0979385717",
    "zalo_url": "https://zalo.me/0979385717",
    "maps_url": "https://maps.app.goo.gl/placeholder",
    "image_urls": [],
    "num_of_courts": 3,
    "price_range": "Liên hệ",
    "tags": [
      "Q. Cẩm Lệ"
    ],
    "created_at": "2026-04-20T06:36:48.617Z"
  },
  {
    "id": "court-24",
    "name": "Sân Kingsport",
    "address": "85 Tôn Thất Dương Kỵ, P. Hòa Xuân, Q. Cẩm Lệ",
    "latitude": 16.0163142,
    "longitude": 108.2182895,
    "contact_number": "0702872227",
    "zalo_url": "https://zalo.me/0702872227",
    "maps_url": "https://maps.app.goo.gl/placeholder",
    "image_urls": [],
    "num_of_courts": 3,
    "price_range": "Liên hệ",
    "tags": [
      "Q. Cẩm Lệ"
    ],
    "created_at": "2026-04-20T06:36:48.617Z"
  },
  {
    "id": "court-27",
    "name": "Sân BetaEra",
    "address": "275 Nguyễn Tri Phương, P. Thanh Bình, Q. Hải Châu",
    "latitude": 16.0533879,
    "longitude": 108.2082985,
    "contact_number": "0935665976",
    "zalo_url": "https://zalo.me/0935665976",
    "maps_url": "https://maps.app.goo.gl/placeholder",
    "image_urls": [],
    "num_of_courts": 16,
    "price_range": "Liên hệ",
    "tags": [
      "Q. Hải Châu",
      "Nhiều sân"
    ],
    "created_at": "2026-04-23T10:00:00Z"
  },
  {
    "id": "court-28",
    "name": "Sân Trọng Nghĩa 1",
    "address": "458 Nguyễn Tri Phương, P. Bình Thuận, Q. Hải Châu",
    "latitude": 16.049679,
    "longitude": 108.2038938,
    "contact_number": "",
    "zalo_url": "",
    "maps_url": "https://maps.app.goo.gl/placeholder",
    "image_urls": [],
    "num_of_courts": 4,
    "price_range": "Liên hệ",
    "tags": [
      "Q. Hải Châu"
    ],
    "created_at": "2026-04-23T10:00:00Z"
  },
  {
    "id": "court-29",
    "name": "TT Thể thao Hải Châu",
    "address": "49 Tân An 3, P. Thanh Bình, Q. Hải Châu",
    "latitude": 16.0374303,
    "longitude": 108.2086023,
    "contact_number": "",
    "zalo_url": "",
    "maps_url": "https://maps.app.goo.gl/placeholder",
    "image_urls": [],
    "num_of_courts": 4,
    "price_range": "Liên hệ",
    "tags": [
      "Q. Hải Châu"
    ],
    "created_at": "2026-04-23T10:00:00Z"
  },
  {
    "id": "court-30",
    "name": "Sân 04 Lê Duẩn",
    "address": "04 Lê Duẩn, P. Hòa Cường Bắc, Q. Hải Châu",
    "latitude": 16.0467003,
    "longitude": 108.214697,
    "contact_number": "",
    "zalo_url": "",
    "maps_url": "https://maps.app.goo.gl/placeholder",
    "image_urls": [],
    "num_of_courts": 4,
    "price_range": "Liên hệ",
    "tags": [
      "Q. Hải Châu"
    ],
    "created_at": "2026-04-23T10:00:00Z"
  },
  {
    "id": "court-31",
    "name": "Sân Đa Phước",
    "address": "KĐT Đa Phước, P. Hòa Thuận Tây, Q. Hải Châu",
    "latitude": 16.0757826,
    "longitude": 108.205057,
    "contact_number": "",
    "zalo_url": "",
    "maps_url": "https://maps.app.goo.gl/placeholder",
    "image_urls": [],
    "num_of_courts": 4,
    "price_range": "Liên hệ",
    "tags": [
      "Q. Hải Châu"
    ],
    "created_at": "2026-04-23T10:00:00Z"
  },
  {
    "id": "court-32",
    "name": "Sân Bưu Điện",
    "address": "50B Nguyễn Du, P. Hòa Cường Nam, Q. Hải Châu",
    "latitude": 16.0786653,
    "longitude": 108.2188259,
    "contact_number": "",
    "zalo_url": "",
    "maps_url": "https://maps.app.goo.gl/placeholder",
    "image_urls": [],
    "num_of_courts": 4,
    "price_range": "Liên hệ",
    "tags": [
      "Q. Hải Châu"
    ],
    "created_at": "2026-04-23T10:00:00Z"
  },
  {
    "id": "court-33",
    "name": "Sân Trọng Nghĩa 2",
    "address": "194 Bế Văn Đàn, P. An Khê, Q. Thanh Khê",
    "latitude": 16.0652,
    "longitude": 108.1934,
    "contact_number": "",
    "zalo_url": "",
    "maps_url": "https://maps.app.goo.gl/placeholder",
    "image_urls": [],
    "num_of_courts": 4,
    "price_range": "Liên hệ",
    "tags": [
      "Q. Thanh Khê"
    ],
    "created_at": "2026-04-23T10:00:00Z"
  },
  {
    "id": "court-34",
    "name": "Sân CĐ Thương Mại",
    "address": "45 Dũng Sĩ Thanh Khê, P. Thanh Khê Tây, Q. Thanh Khê",
    "latitude": 16.072,
    "longitude": 108.177,
    "contact_number": "",
    "zalo_url": "",
    "maps_url": "https://maps.app.goo.gl/placeholder",
    "image_urls": [],
    "num_of_courts": 4,
    "price_range": "Liên hệ",
    "tags": [
      "Q. Thanh Khê",
      "Sân trường"
    ],
    "created_at": "2026-04-23T10:00:00Z"
  },
  {
    "id": "court-35",
    "name": "CLB An Khê",
    "address": "178 Nguyễn Đình Tựu, P. An Khê, Q. Thanh Khê",
    "latitude": 16.0585359,
    "longitude": 108.1646525,
    "contact_number": "",
    "zalo_url": "",
    "maps_url": "https://maps.app.goo.gl/placeholder",
    "image_urls": [],
    "num_of_courts": 4,
    "price_range": "Liên hệ",
    "tags": [
      "Q. Thanh Khê"
    ],
    "created_at": "2026-04-23T10:00:00Z"
  },
  {
    "id": "court-36",
    "name": "Sân ACE Badminton",
    "address": "257 Dũng Sĩ Thanh Khê, P. Thanh Khê Tây, Q. Thanh Khê",
    "latitude": 16.04987,
    "longitude": 108.098851,
    "contact_number": "",
    "zalo_url": "",
    "maps_url": "https://maps.app.goo.gl/placeholder",
    "image_urls": [],
    "num_of_courts": 4,
    "price_range": "Liên hệ",
    "tags": [
      "Q. Thanh Khê"
    ],
    "created_at": "2026-04-23T10:00:00Z"
  },
  {
    "id": "court-37",
    "name": "Sân Wings (CĐ Nghề Đà Nẵng)",
    "address": "132 Tô Hiến Thành, P. An Hải Bắc, Q. Sơn Trà",
    "latitude": 16.0601572,
    "longitude": 108.2429848,
    "contact_number": "",
    "zalo_url": "",
    "maps_url": "https://maps.app.goo.gl/placeholder",
    "image_urls": [],
    "num_of_courts": 4,
    "price_range": "Liên hệ",
    "tags": [
      "Q. Sơn Trà",
      "Sân trường"
    ],
    "created_at": "2026-04-23T10:00:00Z"
  },
  {
    "id": "court-38",
    "name": "Sân An Đồn 5.5",
    "address": "Đường số 5, KCN An Đồn, Q. Sơn Trà",
    "latitude": 16.082,
    "longitude": 108.237,
    "contact_number": "0708721111",
    "zalo_url": "https://zalo.me/0708721111",
    "maps_url": "https://maps.app.goo.gl/placeholder",
    "image_urls": [],
    "num_of_courts": 6,
    "price_range": "Liên hệ",
    "tags": [
      "Q. Sơn Trà",
      "Nhiều sân"
    ],
    "created_at": "2026-04-23T10:00:00Z"
  },
  {
    "id": "court-39",
    "name": "Sân Hồ Nghinh",
    "address": "Q. Sơn Trà",
    "latitude": 16.0738269,
    "longitude": 108.2346391,
    "contact_number": "0934768034",
    "zalo_url": "https://zalo.me/0934768034",
    "maps_url": "https://maps.app.goo.gl/placeholder",
    "image_urls": [],
    "num_of_courts": 4,
    "price_range": "Liên hệ",
    "tags": [
      "Q. Sơn Trà"
    ],
    "created_at": "2026-04-23T10:00:00Z"
  },
  {
    "id": "court-40",
    "name": "Sân Arena.01",
    "address": "40 Hoàng Văn Thái, P. Hòa Khánh Nam, Q. Liên Chiểu",
    "latitude": 16.0566509,
    "longitude": 108.164573,
    "contact_number": "0788818585",
    "zalo_url": "https://zalo.me/0788818585",
    "maps_url": "https://maps.app.goo.gl/placeholder",
    "image_urls": [],
    "num_of_courts": 4,
    "price_range": "Liên hệ",
    "tags": [
      "Q. Liên Chiểu"
    ],
    "created_at": "2026-04-23T10:00:00Z"
  },
  {
    "id": "court-41",
    "name": "Sân Hunter",
    "address": "459 Tôn Đức Thắng, P. Hòa Khánh Nam, Q. Liên Chiểu",
    "latitude": 16.08,
    "longitude": 108.15,
    "contact_number": "",
    "zalo_url": "",
    "maps_url": "https://maps.app.goo.gl/placeholder",
    "image_urls": [],
    "num_of_courts": 4,
    "price_range": "Liên hệ",
    "tags": [
      "Q. Liên Chiểu"
    ],
    "created_at": "2026-04-23T10:00:00Z"
  },
  {
    "id": "court-42",
    "name": "Sân AlphaEra",
    "address": "Cạnh Mikazuki, P. Hòa Hiệp Nam, Q. Liên Chiểu",
    "latitude": 16.0921811,
    "longitude": 108.1261332,
    "contact_number": "",
    "zalo_url": "",
    "maps_url": "https://maps.app.goo.gl/placeholder",
    "image_urls": [],
    "num_of_courts": 4,
    "price_range": "Liên hệ",
    "tags": [
      "Q. Liên Chiểu"
    ],
    "created_at": "2026-04-23T10:00:00Z"
  },
  {
    "id": "court-43",
    "name": "Sân Làng Hòa Mỹ",
    "address": "K120 Nguyễn Huy Tưởng, P. Hòa Khánh Nam, Q. Liên Chiểu",
    "latitude": 16.078,
    "longitude": 108.142,
    "contact_number": "",
    "zalo_url": "",
    "maps_url": "https://maps.app.goo.gl/placeholder",
    "image_urls": [],
    "num_of_courts": 4,
    "price_range": "Liên hệ",
    "tags": [
      "Q. Liên Chiểu"
    ],
    "created_at": "2026-04-23T10:00:00Z"
  },
  {
    "id": "court-44",
    "name": "Sân Min Tom",
    "address": "108 Hoàng Minh Thảo, P. Hòa Khánh Nam, Q. Liên Chiểu",
    "latitude": 16.0754365,
    "longitude": 108.1550745,
    "contact_number": "",
    "zalo_url": "",
    "maps_url": "https://maps.app.goo.gl/placeholder",
    "image_urls": [],
    "num_of_courts": 4,
    "price_range": "Liên hệ",
    "tags": [
      "Q. Liên Chiểu"
    ],
    "created_at": "2026-04-23T10:00:00Z"
  },
  {
    "id": "court-45",
    "name": "Sân INDEXSPORT Cẩm Lệ",
    "address": "448 Mẹ Thứ, P. Hòa An, Q. Cẩm Lệ",
    "latitude": 15.9996733,
    "longitude": 108.2078578,
    "contact_number": "0981086979",
    "zalo_url": "https://zalo.me/0981086979",
    "maps_url": "https://maps.app.goo.gl/placeholder",
    "image_urls": [],
    "num_of_courts": 6,
    "price_range": "Liên hệ",
    "tags": [
      "Q. Cẩm Lệ"
    ],
    "created_at": "2026-04-23T10:00:00Z"
  },
  {
    "id": "court-46",
    "name": "Sân Hiếu Con",
    "address": "172-182 Đỗ Quỳ, P. Hòa Xuân, Q. Cẩm Lệ",
    "latitude": 16.0152958,
    "longitude": 108.2194935,
    "contact_number": "0905403222",
    "zalo_url": "https://zalo.me/0905403222",
    "maps_url": "https://maps.app.goo.gl/placeholder",
    "image_urls": [],
    "num_of_courts": 4,
    "price_range": "Liên hệ",
    "tags": [
      "Q. Cẩm Lệ"
    ],
    "created_at": "2026-04-23T10:00:00Z"
  },
  {
    "id": "court-47",
    "name": "Nhà Thi Đấu Hòa Xuân",
    "address": "01A Dương Loan, P. Hòa Xuân, Q. Cẩm Lệ",
    "latitude": 15.9986476,
    "longitude": 108.2200178,
    "contact_number": "",
    "zalo_url": "",
    "maps_url": "https://maps.app.goo.gl/placeholder",
    "image_urls": [],
    "num_of_courts": 6,
    "price_range": "Liên hệ",
    "tags": [
      "Q. Cẩm Lệ"
    ],
    "created_at": "2026-04-23T10:00:00Z"
  },
  {
    "id": "court-48",
    "name": "Sân Hoa Cam",
    "address": "02 Trường Sơn, P. Hòa An, Q. Cẩm Lệ",
    "latitude": 16.0152591,
    "longitude": 108.1717462,
    "contact_number": "",
    "zalo_url": "",
    "maps_url": "https://maps.app.goo.gl/placeholder",
    "image_urls": [],
    "num_of_courts": 4,
    "price_range": "Liên hệ",
    "tags": [
      "Q. Cẩm Lệ"
    ],
    "created_at": "2026-04-23T10:00:00Z"
  },
  {
    "id": "court-49",
    "name": "Sân Dương Gia Hòa Xuân",
    "address": "207 Quách Thị Trang, P. Hòa Xuân, Q. Cẩm Lệ",
    "latitude": 16.005,
    "longitude": 108.2236,
    "contact_number": "",
    "zalo_url": "",
    "maps_url": "https://maps.app.goo.gl/placeholder",
    "image_urls": [],
    "num_of_courts": 4,
    "price_range": "Liên hệ",
    "tags": [
      "Q. Cẩm Lệ"
    ],
    "created_at": "2026-04-23T10:00:00Z"
  },
  {
    "id": "court-50",
    "name": "Sân Mỹ An",
    "address": "382 Ngũ Hành Sơn, P. Mỹ An, Q. Ngũ Hành Sơn",
    "latitude": 16.0161186,
    "longitude": 108.2156391,
    "contact_number": "",
    "zalo_url": "",
    "maps_url": "https://maps.app.goo.gl/placeholder",
    "image_urls": [],
    "num_of_courts": 4,
    "price_range": "Liên hệ",
    "tags": [
      "Q. Ngũ Hành Sơn"
    ],
    "created_at": "2026-04-23T10:00:00Z"
  },
  {
    "id": "court-51",
    "name": "TT Văn hóa Thể thao Q. Ngũ Hành Sơn",
    "address": "01B Trần Văn Đán, P. Mỹ An, Q. Ngũ Hành Sơn",
    "latitude": 16.030232,
    "longitude": 108.2451933,
    "contact_number": "",
    "zalo_url": "",
    "maps_url": "https://maps.app.goo.gl/placeholder",
    "image_urls": [],
    "num_of_courts": 4,
    "price_range": "Liên hệ",
    "tags": [
      "Q. Ngũ Hành Sơn"
    ],
    "created_at": "2026-04-23T10:00:00Z"
  },
  {
    "id": "court-52",
    "name": "Sân Thiên Vũ",
    "address": "P. Hòa Quý, Q. Ngũ Hành Sơn",
    "latitude": 15.9861,
    "longitude": 108.242,
    "contact_number": "",
    "zalo_url": "",
    "maps_url": "https://maps.app.goo.gl/placeholder",
    "image_urls": [],
    "num_of_courts": 4,
    "price_range": "Liên hệ",
    "tags": [
      "Q. Ngũ Hành Sơn"
    ],
    "created_at": "2026-04-23T10:00:00Z"
  },
  {
    "id": "court-53",
    "name": "Sân LONG Badminton",
    "address": "P. Hòa Quý, Q. Ngũ Hành Sơn",
    "latitude": 16.0195898,
    "longitude": 108.2349887,
    "contact_number": "",
    "zalo_url": "",
    "maps_url": "https://maps.app.goo.gl/placeholder",
    "image_urls": [],
    "num_of_courts": 4,
    "price_range": "Liên hệ",
    "tags": [
      "Q. Ngũ Hành Sơn"
    ],
    "created_at": "2026-04-23T10:00:00Z"
  },
  {
    "id": "court-54",
    "name": "Sân T&T Badminton",
    "address": "534 Phạm Hùng, H. Hòa Vang",
    "latitude": 16.01,
    "longitude": 108.165,
    "contact_number": "",
    "zalo_url": "",
    "maps_url": "https://maps.app.goo.gl/placeholder",
    "image_urls": [],
    "num_of_courts": 4,
    "price_range": "Liên hệ",
    "tags": [
      "H. Hòa Vang"
    ],
    "created_at": "2026-04-23T10:00:00Z"
  },
  {
    "id": "court-55",
    "name": "Sân Lâm Gia",
    "address": "17 Bàu Năng, P. Hòa Minh, Q. Liên Chiểu",
    "latitude": 16.0924153,
    "longitude": 108.1470734,
    "contact_number": "",
    "zalo_url": "",
    "maps_url": "https://maps.app.goo.gl/placeholder",
    "image_urls": [],
    "num_of_courts": 4,
    "price_range": "Liên hệ",
    "tags": [
      "Q. Liên Chiểu"
    ],
    "created_at": "2026-04-23T10:00:00Z"
  },
  {
    "id": "court-56",
    "name": "Sân ARMY Badminton",
    "address": "Đối diện 01 Phạm Ngọc Mậu, P. An Khê, Q. Thanh Khê",
    "latitude": 16.041,
    "longitude": 108.188,
    "contact_number": "",
    "zalo_url": "",
    "maps_url": "https://maps.app.goo.gl/placeholder",
    "image_urls": [],
    "num_of_courts": 3,
    "price_range": "Liên hệ",
    "tags": [
      "Q. Thanh Khê"
    ],
    "created_at": "2026-04-23T10:00:00Z"
  },
  {
    "id": "court-57",
    "name": "Sân ICON Badminton",
    "address": "122 Tôn Đản, P. Hòa An, Q. Cẩm Lệ",
    "latitude": 16.055,
    "longitude": 108.179,
    "contact_number": "0905591379",
    "zalo_url": "https://zalo.me/0905591379",
    "maps_url": "https://maps.app.goo.gl/placeholder",
    "image_urls": [],
    "num_of_courts": 4,
    "price_range": "Liên hệ",
    "tags": [
      "Q. Cẩm Lệ"
    ],
    "created_at": "2026-04-23T10:00:00Z"
  }
]
