[
  {
    "id": "court-1",
    "name": "Cung Tiên Sơn",
    "address": "01A Phan Đăng Lưu, P. Hòa Cường Bắc, Q. Hải Châu",
    "latitude": 16.0352,
    "longitude": 108.2255,
    "contact_number": "",
    "zalo_url": "https://zalo.me/",
    "maps_url": "https://maps.app.goo.gl/placeholder",
    "image_urls": [
      "https://images.unsplash.com/photo-1626224583764-f87db24ac4ea?auto=format&fit=crop&q=80&w=800"
    ],
    "num_of_courts": 12,
    "price_range": "Liên hệ",
    "tags": [
      "Q. Hải Châu",
      "Sân thảm"
    ],
    "created_at": "2026-04-20T10:00:00Z"
  },
  {
    "id": "court-2",
    "name": "Sân Quân khu 5 (Sân gỗ & thảm)",
    "address": "07 Duy Tân, P. Hòa Cường Bắc, Q. Hải Châu",
    "latitude": 16.0505,
    "longitude": 108.2115,
    "contact_number": "0905291918",
    "zalo_url": "https://zalo.me/0905291918",
    "maps_url": "https://maps.app.goo.gl/placeholder",
    "image_urls": [
      "https://images.unsplash.com/photo-1598005481773-6701235b3e64?auto=format&fit=crop&q=80&w=800"
    ],
    "num_of_courts": 14,
    "price_range": "Liên hệ",
    "tags": [
      "Q. Hải Châu",
      "Sân gỗ",
      "Sân thảm"
    ],
    "created_at": "2026-04-20T10:00:00Z"
  },
  {
    "id": "court-3",
    "name": "Sân Phan Châu Trinh",
    "address": "405 Phan Châu Trinh, P. Bình Thuận, Q. Hải Châu",
    "latitude": 16.0592,
    "longitude": 108.2201,
    "contact_number": "0905393223",
    "zalo_url": "https://zalo.me/0905393223",
    "maps_url": "https://maps.app.goo.gl/placeholder",
    "image_urls": [
      "https://images.unsplash.com/photo-1611250282006-4484dd3fba6b?auto=format&fit=crop&q=80&w=800"
    ],
    "num_of_courts": 9,
    "price_range": "Liên hệ",
    "tags": [
      "Q. Hải Châu"
    ],
    "created_at": "2026-04-20T10:00:00Z"
  },
  {
    "id": "court-4",
    "name": "TT Văn hóa Thể thao Q. Thanh Khê",
    "address": "21 Hồ Tương, P. An Khê, Q. Thanh Khê",
    "latitude": 16.0645,
    "longitude": 108.1965,
    "contact_number": "0935189909",
    "zalo_url": "https://zalo.me/0935189909",
    "maps_url": "https://maps.app.goo.gl/placeholder",
    "image_urls": [],
    "num_of_courts": 9,
    "price_range": "Liên hệ",
    "tags": [
      "Q. Thanh Khê"
    ],
    "created_at": "2026-04-20T10:00:00Z"
  },
  {
    "id": "court-5",
    "name": "Sân Tin Sport",
    "address": "107 Trường Chinh, P. An Khê, Q. Thanh Khê",
    "latitude": 16.0645,
    "longitude": 108.182,
    "contact_number": "0935333748",
    "zalo_url": "https://zalo.me/0935333748",
    "maps_url": "https://maps.app.goo.gl/placeholder",
    "image_urls": [],
    "num_of_courts": 6,
    "price_range": "Liên hệ",
    "tags": [
      "Q. Thanh Khê"
    ],
    "created_at": "2026-04-20T10:00:00Z"
  },
  {
    "id": "court-6",
    "name": "Sân Kỳ Đồng",
    "address": "121 Kỳ Đồng, P. Hòa Khê, Q. Thanh Khê",
    "latitude": 16.0688,
    "longitude": 108.1882,
    "contact_number": "0914288338",
    "zalo_url": "https://zalo.me/0914288338",
    "maps_url": "https://maps.app.goo.gl/placeholder",
    "image_urls": [],
    "num_of_courts": 4,
    "price_range": "Liên hệ",
    "tags": [
      "Q. Thanh Khê"
    ],
    "created_at": "2026-04-20T10:00:00Z"
  },
  {
    "id": "court-7",
    "name": "TT Văn hóa Thể thao Q. Sơn Trà",
    "address": "01 Trần Quang Diệu, P. An Hải Tây, Q. Sơn Trà",
    "latitude": 16.0678,
    "longitude": 108.2325,
    "contact_number": "0914288353",
    "zalo_url": "https://zalo.me/0914288353",
    "maps_url": "https://maps.app.goo.gl/placeholder",
    "image_urls": [],
    "num_of_courts": 9,
    "price_range": "Liên hệ",
    "tags": [
      "Q. Sơn Trà"
    ],
    "created_at": "2026-04-20T10:00:00Z"
  },
  {
    "id": "court-8",
    "name": "Sân PinPon",
    "address": "Đường số 6, KCN An Đồn, Q. Sơn Trà",
    "latitude": 16.0822,
    "longitude": 108.2355,
    "contact_number": "0898200700",
    "zalo_url": "https://zalo.me/0898200700",
    "maps_url": "https://maps.app.goo.gl/placeholder",
    "image_urls": [],
    "num_of_courts": 6,
    "price_range": "Liên hệ",
    "tags": [
      "Q. Sơn Trà",
      "Nhiều sân"
    ],
    "created_at": "2026-04-20T10:00:00Z"
  },
  {
    "id": "court-9",
    "name": "Sân Aurora",
    "address": "Đường số 6, KCN An Đồn, Q. Sơn Trà",
    "latitude": 16.0825,
    "longitude": 108.235,
    "contact_number": "0905640009",
    "zalo_url": "https://zalo.me/0905640009",
    "maps_url": "https://maps.app.goo.gl/placeholder",
    "image_urls": [],
    "num_of_courts": 8,
    "price_range": "Liên hệ",
    "tags": [
      "Q. Sơn Trà"
    ],
    "created_at": "2026-04-20T10:00:00Z"
  },
  {
    "id": "court-10",
    "name": "Sân Cầu Lông Win Win",
    "address": "642 Tôn Đức Thắng, P. Hòa Khánh Nam, Q. Liên Chiểu",
    "latitude": 16.0815,
    "longitude": 108.1511,
    "contact_number": "",
    "zalo_url": "https://zalo.me/",
    "maps_url": "https://maps.app.goo.gl/placeholder",
    "image_urls": [],
    "num_of_courts": 6,
    "price_range": "Liên hệ",
    "tags": [
      "Q. Liên Chiểu"
    ],
    "created_at": "2026-04-20T10:00:00Z"
  },
  {
    "id": "court-11",
    "name": "TT Huấn luyện & Đào tạo TDTT TP. Đà Nẵng",
    "address": "190 Đường Loan, P. Hòa Xuân, Q. Cẩm Lệ",
    "latitude": 16.0022,
    "longitude": 108.2122,
    "contact_number": "0905108200",
    "zalo_url": "https://zalo.me/0905108200",
    "maps_url": "https://maps.app.goo.gl/placeholder",
    "image_urls": [],
    "num_of_courts": 6,
    "price_range": "Liên hệ",
    "tags": [
      "Q. Cẩm Lệ"
    ],
    "created_at": "2026-04-20T10:00:00Z"
  },
  {
    "id": "court-12",
    "name": "Sân Trường CĐ Lương Thực Thực Phẩm",
    "address": "101B Lê Hữu Trác, P. Phước Mỹ, Q. Sơn Trà",
    "latitude": 16.0592,
    "longitude": 108.2415,
    "contact_number": "0905225295",
    "zalo_url": "https://zalo.me/0905225295",
    "maps_url": "https://maps.app.goo.gl/placeholder",
    "image_urls": [],
    "num_of_courts": 6,
    "price_range": "Liên hệ",
    "tags": [
      "Q. Sơn Trà",
      "Sân trường"
    ],
    "created_at": "2026-04-20T10:00:00Z"
  },
  {
    "id": "court-13",
    "name": "Sân Đỗ Ngọc Du",
    "address": "34 Đỗ Ngọc Du, P. Thanh Khê Đông, Q. Thanh Khê",
    "latitude": 16.0683,
    "longitude": 108.19,
    "contact_number": "0766666995",
    "zalo_url": "https://zalo.me/0766666995",
    "maps_url": "https://maps.app.goo.gl/placeholder",
    "image_urls": [],
    "num_of_courts": 4,
    "price_range": "Liên hệ",
    "tags": [
      "Q. Thanh Khê"
    ],
    "created_at": "2026-04-20T06:36:48.616Z"
  },
  {
    "id": "court-15",
    "name": "Sân trường ĐH TDTT TP. Đà Nẵng",
    "address": "44 Dũng Sĩ Thanh Khê, P. Thanh Khê Tây, Q. Thanh Khê",
    "latitude": 16.0708,
    "longitude": 108.181,
    "contact_number": "0912850767",
    "zalo_url": "https://zalo.me/0912850767",
    "maps_url": "https://maps.app.goo.gl/placeholder",
    "image_urls": [],
    "num_of_courts": 9,
    "price_range": "Liên hệ",
    "tags": [
      "Q. Thanh Khê",
      "Nhiều sân"
    ],
    "created_at": "2026-04-20T06:36:48.617Z"
  },
  {
    "id": "court-16",
    "name": "Sân cầu lông UK Academy",
    "address": "1/28 Tôn Thất Đạm, P. Xuân Hà, Q. Thanh Khê",
    "latitude": 16.0721,
    "longitude": 108.2013,
    "contact_number": "",
    "zalo_url": "",
    "maps_url": "https://maps.app.goo.gl/placeholder",
    "image_urls": [],
    "num_of_courts": 3,
    "price_range": "Liên hệ",
    "tags": [
      "Q. Thanh Khê"
    ],
    "created_at": "2026-04-20T06:36:48.617Z"
  },
  {
    "id": "court-22",
    "name": "Sân INDEXSport Ngũ Hành Sơn",
    "address": "81C Lê Văn Hiến, P. Khuê Mỹ, Q. Ngũ Hành Sơn",
    "latitude": 16.0004,
    "longitude": 108.2596,
    "contact_number": "0981086979",
    "zalo_url": "https://zalo.me/0981086979",
    "maps_url": "https://maps.app.goo.gl/placeholder",
    "image_urls": [],
    "num_of_courts": 6,
    "price_range": "Liên hệ",
    "tags": [
      "Q. Ngũ Hành Sơn"
    ],
    "created_at": "2026-04-20T06:36:48.617Z"
  },
  {
    "id": "court-23",
    "name": "Sân Phúc Đăng",
    "address": "39 Thanh Lương 19, P. Hòa Xuân, Q. Cẩm Lệ",
    "latitude": 16.013,
    "longitude": 108.2214,
    "contact_number": "0979385717",
    "zalo_url": "https://zalo.me/0979385717",
    "maps_url": "https://maps.app.goo.gl/placeholder",
    "image_urls": [],
    "num_of_courts": 3,
    "price_range": "Liên hệ",
    "tags": [
      "Q. Cẩm Lệ"
    ],
    "created_at": "2026-04-20T06:36:48.617Z"
  },
  {
    "id": "court-24",
    "name": "Sân Kingsport",
    "address": "85 Tôn Thất Dương Kỵ, P. Hòa Xuân, Q. Cẩm Lệ",
    "latitude": 16.0155,
    "longitude": 108.2174,
    "contact_number": "0702872227",
    "zalo_url": "https://zalo.me/0702872227",
    "maps_url": "https://maps.app.goo.gl/placeholder",
    "image_urls": [],
    "num_of_courts": 3,
    "price_range": "Liên hệ",
    "tags": [
      "Q. Cẩm Lệ"
    ],
    "created_at": "2026-04-20T06:36:48.617Z"
  }
]
